[
  {
    "id": "apricot-lane-blacksburg",
    "name": "Apricot Lane Boutique (Blacksburg)",
    "category": "clothing",
    "description": "Women’s clothing and accessories boutique near Virginia Tech",
    "city": "Blacksburg",
    "state": "VA",
    "lat": 37.2299,
    "lon": -80.4138,
    "tags": ["local", "small_new"],
    "womenOwnedStatus": "unknown",
    "dataSource": "research",
    "verificationNote": "Locally operated boutique franchise",
    "website": "https://apricotlaneboutique.com/"
  },
  {
    "id": "fringe-benefit",
    "name": "Fringe Benefit",
    "category": "clothing",
    "description": "Women’s clothing boutique with jewelry, accessories, and gifts",
    "city": "Blacksburg",
    "state": "VA",
    "lat": 37.22933,
    "lon": -80.41419,
    "tags": ["local", "small_new"],
    "womenOwnedStatus": "claimed",
    "dataSource": "research",
    "verificationNote": "Independent boutique in downtown Blacksburg",
    "website": "http://fringebenefitva.com/"
  },
  {
    "id": "bonomos-inc",
    "name": "Bonomo's Inc",
    "category": "clothing",
    "description": "Classic women’s clothing shop in Blacksburg",
    "city": "Blacksburg",
    "state": "VA",
    "lat": 37.2304,
    "lon": -80.4147,
    "tags": ["local", "small_new"],
    "womenOwnedStatus": "unknown",
    "dataSource": "research",
    "verificationNote": "Long-standing independent clothing store",
    "website": "https://www.bonomos.com/"
  },
  {
    "id": "310-rosemont",
    "name": "310 Rosemont",
    "category": "clothing",
    "description": "Boutique offering stylish women’s fashion",
    "city": "Blacksburg",
    "state": "VA",
    "lat": 37.2312,
    "lon": -80.4161,
    "tags": ["local", "small_new"],
    "womenOwnedStatus": "unknown",
    "dataSource": "research",
    "verificationNote": "Local boutique business",
    "website": "https://www.instagram.com/310rosemont/"
  },
  {
    "id": "la-bella-donna-cherie",
    "name": "La Bella Donna Cherie (inside Tea & Totally Gifts)",
    "category": "clothing",
    "description": "Women’s boutique with curated apparel options",
    "city": "Blacksburg",
    "state": "VA",
    "lat": 37.2298,
    "lon": -80.4132,
    "tags": ["local", "small_new"],
    "womenOwnedStatus": "unknown",
    "dataSource": "research",
    "verificationNote": "Boutique operated inside Tea & Totally Gifts",
    "website": "https://www.teaandtotallygifts.com/"
  },
  {
    "id": "messy-tuck-boutique",
    "name": "The Messy Tuck Boutique",
    "category": "clothing",
    "description": "Small women’s clothing boutique in Christiansburg",
    "city": "Christiansburg",
    "state": "VA",
    "lat": 37.1299,
    "lon": -80.4089,
    "tags": ["local", "small_new"],
    "womenOwnedStatus": "unknown",
    "dataSource": "research",
    "verificationNote": "Independent boutique",
    "website": "https://www.facebook.com/TheMessyTuck/"
  },
  {
    "id": "vtthrift",
    "name": "VTTHRIFT",
    "category": "clothing",
    "description": "Thrift shop with sustainable and unique clothing finds",
    "city": "Blacksburg",
    "state": "VA",
    "lat": 37.2267,
    "lon": -80.4214,
    "tags": ["local", "sustainable"],
    "womenOwnedStatus": "unknown",
    "dataSource": "research",
    "verificationNote": "Sustainable resale shop",
    "website": "https://www.instagram.com/vtthrift/"
  },
  {
    "id": "uptown-cheapskate-christiansburg",
    "name": "Uptown Cheapskate (Christiansburg)",
    "category": "clothing",
    "description": "Trendy resale store focused on sustainable fashion",
    "city": "Christiansburg",
    "state": "VA",
    "lat": 37.1292,
    "lon": -80.4096,
    "tags": ["local", "sustainable"],
    "womenOwnedStatus": "unknown",
    "dataSource": "research",
    "verificationNote": "Resale clothing shop",
    "website": "https://www.uptowncheapskate.com/"
  },
  {
    "id": "megs-radford",
    "name": "Meg's (Radford)",
    "category": "clothing",
    "description": "Specialty women’s clothing boutique in Radford",
    "city": "Radford",
    "state": "VA",
    "lat": 37.1318,
    "lon": -80.5764,
    "tags": ["local", "small_new"],
    "womenOwnedStatus": "unknown",
    "dataSource": "research",
    "verificationNote": "Regional boutique within demo radius",
    "website": "https://www.clothingmusthaves.com/"
  },
  {
    "id": "fwm-candles",
    "name": "FWM Candles LLC",
    "category": "gift",
    "description": "Hand-poured candles made by a local small business",
    "city": "Blacksburg",
    "state": "VA",
    "lat": 37.2285,
    "lon": -80.4129,
    "tags": ["local", "small_new"],
    "womenOwnedStatus": "claimed",
    "dataSource": "research",
    "verificationNote": "Listed as women-owned in local directories",
    "website": "https://www.facebook.com/FWMCandles/"
  },
  {
    "id": "the-burg-box",
    "name": "The Burg Box",
    "category": "gift",
    "description": "Curated gift boxes featuring local favorites",
    "city": "Blacksburg",
    "state": "VA",
    "lat": 37.23,
    "lon": -80.415,
    "tags": ["local", "small_new"],
    "womenOwnedStatus": "claimed",
    "dataSource": "research",
    "verificationNote": "Women-founded local gift business",
    "website": "https://www.theburgbox.com/"
  },
  {
    "id": "gigis-cupcakes",
    "name": "Gigi’s Cupcakes (Christiansburg)",
    "category": "food",
    "description": "Bakery specializing in cupcakes and desserts",
    "city": "Christiansburg",
    "state": "VA",
    "lat": 37.1296,
    "lon": -80.4089,
    "tags": ["local", "small_new", "fast_delivery"],
    "womenOwnedStatus": "unknown",
    "dataSource": "research",
    "verificationNote": "Local bakery location",
    "website": "https://www.gigiscupcakesnrv.com/"
  },
  {
    "id": "mill-mountain-coffee",
    "name": "Mill Mountain Coffee & Tea",
    "category": "food",
    "description": "Coffee roasters and café serving the Blacksburg area",
    "city": "Blacksburg",
    "state": "VA",
    "lat": 37.2386,
    "lon": -80.4139,
    "tags": ["local", "small_new"],
    "womenOwnedStatus": "unknown",
    "dataSource": "research",
    "verificationNote": "Local café and roastery",
    "website": "https://blacksburgmillmountain.com/"
  },
  {
    "id": "wine-and-design",
    "name": "Wine & Design (Christiansburg)",
    "category": "services",
    "description": "Painting events and creative experiences",
    "city": "Christiansburg",
    "state": "VA",
    "lat": 37.129,
    "lon": -80.4095,
    "tags": ["local", "small_new"],
    "womenOwnedStatus": "unknown",
    "dataSource": "research",
    "verificationNote": "Creative experience business",
    "website": "https://www.wineanddesign.com/calendar/christiansburg-va"
  },
  {
    "id": "allure-spa",
    "name": "Allure Spa & Skin Health Boutique",
    "category": "services",
    "description": "Spa and skin health services",
    "city": "Blacksburg",
    "state": "VA",
    "lat": 37.2288,
    "lon": -80.4139,
    "tags": ["local", "small_new"],
    "womenOwnedStatus": "unknown",
    "dataSource": "research",
    "verificationNote": "Listed in Montgomery County Chamber directory",
    "website": "https://www.allurespaandskinhealth.com/"
  },
  {
    "id": "body-balance-massage",
    "name": "Body Balance Therapeutic Massage",
    "category": "services",
    "description": "Therapeutic massage and wellness services",
    "city": "Blacksburg",
    "state": "VA",
    "lat": 37.2279,
    "lon": -80.4162,
    "tags": ["local", "small_new"],
    "womenOwnedStatus": "unknown",
    "dataSource": "research",
    "verificationNote": "Local wellness provider",
    "website": "https://www.facebook.com/bodybalancemassagebburg/"
  }
]
